City_ID,City,Lat,Lng,Max Temp,Humidity,Cloudiness,Wind Speed,Country,Date
0,waitangi,-43.9535,-176.5597,17.12,85,34,1.79,NZ,1707790846
1,puerto ayora,-0.7393,-90.3518,26.97,96,57,1.34,EC,1707790846
2,invercargill,-46.4,168.35,24.12,39,44,3.04,NZ,1707790846
3,longyearbyen,78.2186,15.6401,-11.09,73,0,1.03,SJ,1707790846
4,bethel,41.3712,-73.414,3.17,70,100,1.54,US,1707790759
5,orlov,58.5395,48.8917,-17.76,98,85,2.74,RU,1707790846
6,grytviken,-54.2811,-36.5092,3.85,96,100,2.49,GS,1707790846
7,adamstown,-25.066,-130.1015,24.98,90,100,6.71,PN,1707790846
8,klyuchi,52.2667,79.1667,-13.17,83,100,4.22,RU,1707790846
9,coxim,-18.5067,-54.76,25.55,78,63,1.69,BR,1707790847
10,sinabang,2.4803,96.3801,28.72,73,6,0.28,ID,1707790847
11,georgetown,5.4112,100.3354,29.97,60,20,3.6,MY,1707790847
12,hilo,19.7297,-155.09,26.27,78,75,3.09,US,1707790629
13,papatowai,-46.5619,169.4708,20.53,49,80,0.81,NZ,1707790847
14,lautoka,-17.6167,177.4667,30.92,79,75,5.14,FJ,1707790847
15,hawaiian paradise park,19.5933,-154.9731,24.85,76,75,3.09,US,1707790847
16,ormond-by-the-sea,29.3491,-81.0665,26.05,80,100,6.17,US,1707790847
17,saipan,15.1355,145.701,29.39,58,40,9.77,MP,1707790847
18,oistins,13.0667,-59.5333,27.05,78,40,8.75,BB,1707790847
19,albany,42.6001,-73.9662,2.23,69,100,2.13,US,1707790847
20,morant bay,17.8815,-76.4093,27.79,99,65,1.14,JM,1707790847
21,oltinko'l,40.8011,72.1634,5.74,64,100,2.36,UZ,1707790847
22,necochea,-38.5473,-58.7368,15.56,51,6,8.88,AR,1707790847
23,port-aux-francais,-49.35,70.2167,7.48,89,99,12.82,TF,1707790847
24,talnakh,69.4865,88.3972,-34.4,85,21,1.39,RU,1707790847
25,mejit,10.2753,170.8646,26.29,72,100,10.57,MH,1707790848
26,enewetak,11.3474,162.3373,26.52,77,98,9.85,MH,1707790848
27,alaghsas,17.0187,8.0168,21.55,10,0,4.94,NE,1707790848
28,dickinson,29.4608,-95.0513,13.32,58,0,3.6,US,1707790848
29,puerto natales,-51.7236,-72.4875,8.1,82,99,2.23,CL,1707790848
30,mawu,29.5923,107.3139,14.62,62,91,0.77,CN,1707790848
31,port elizabeth,-33.918,25.5701,20.73,87,0,7.2,ZA,1707790848
32,blackmans bay,-43.0167,147.3167,25.41,46,23,0.89,AU,1707790848
33,mora,11.0461,14.1401,22.84,12,0,2.51,CM,1707790848
34,villamontes,-21.25,-63.5,28.86,60,90,2.3,BO,1707790848
35,rikaze,29.25,88.8833,-1.14,20,54,0.94,CN,1707790848
36,stanley,54.868,-1.6985,4.01,80,40,9.26,GB,1707790848
37,ushuaia,-54.8,-68.3,9.81,71,0,0.51,AR,1707790848
38,pumiao,22.75,108.4833,19.22,90,100,4.46,CN,1707790569
39,pangai,-19.8,-174.35,30.06,79,75,3.6,TO,1707790848
40,vadso,70.0744,29.7487,-7.91,86,75,6.17,NO,1707790848
41,fale old settlement,-9.3852,-171.2468,27.81,83,100,8.67,TK,1707790849
42,rawlins,41.7911,-107.2387,-3.14,69,83,10.18,US,1707790821
43,borogontsy,62.6683,131.1683,-27.89,97,100,1.97,RU,1707790849
44,taber,49.8167,-112.1518,-0.89,67,100,4.63,CA,1707790612
45,aykhal,66.0,111.5,-33.97,98,100,2.77,RU,1707790849
46,yellowknife,62.456,-114.3525,-11.71,92,100,1.03,CA,1707790849
47,brockville,44.5834,-75.6826,0.14,84,92,0.4,CA,1707790849
48,vorgashor,67.5833,63.95,-37.42,100,40,1.99,RU,1707790849
49,atafu village,-8.5421,-172.5159,28.36,81,100,10.76,TK,1707790849
50,bilibino,68.0546,166.4372,-33.86,96,88,0.2,RU,1707790849
51,abepura,-2.6333,140.5833,30.45,62,87,1.54,ID,1707790849
52,olonkinbyen,70.9221,-8.7187,-1.81,97,100,10.63,SJ,1707790849
53,uddevalla,58.3478,11.9424,-1.67,92,100,2.06,SE,1707790849
54,tolanaro,-25.0319,46.9987,25.04,94,40,3.6,MG,1707790849
55,puerto rosario,-24.45,-57.0833,28.92,62,39,1.96,PY,1707790849
56,okha,53.5739,142.9478,-14.79,95,100,7.64,RU,1707790850
57,cam ranh,11.9214,109.1591,26.98,57,20,4.63,VN,1707790756
58,namibe,-15.1961,12.1522,24.29,81,100,4.88,AO,1707790850
59,nova vicosa,-17.8919,-39.3719,25.45,90,7,2.29,BR,1707790850
60,hermanus,-34.4187,19.2345,20.45,91,77,2.66,ZA,1707790850
61,tambopata,-12.7333,-69.1833,23.54,99,100,1.02,PE,1707790850
62,murfreesboro,35.8456,-86.3903,9.23,94,100,4.63,US,1707790619
63,tazacorte,28.629,-17.9293,19.54,95,100,3.09,ES,1707790850
64,wailua homesteads,22.0669,-159.378,25.44,66,0,5.14,US,1707790850
65,antonio enes,-16.2325,39.9086,24.85,93,100,3.62,MZ,1707790850
66,west island,-12.1568,96.8225,29.99,70,100,5.66,CC,1707790850
67,kallakkurichchi,11.7333,78.9667,22.74,79,100,1.51,IN,1707790850
68,tefe,-3.3542,-64.7114,24.84,89,61,1.58,BR,1707790850
69,minas de marcona,-15.2119,-75.1103,19.91,80,24,4.3,PE,1707790850
70,saint-joseph,-21.3667,55.6167,24.21,88,68,2.08,RE,1707790850
71,rio grande,-32.035,-52.0986,23.3,93,100,0.84,BR,1707790850
72,dobropillya,48.4615,37.0852,6.9,70,100,2.67,UA,1707790851
73,tazovsky,67.4667,78.7,-39.57,100,32,1.23,RU,1707790851
74,sariyahsi,38.9835,33.8414,8.72,61,100,2.37,TR,1707790851
75,cadale,2.7603,46.3222,24.03,95,77,3.17,SO,1707790851
76,olyokminsk,60.3736,120.4264,-24.91,89,100,3.79,RU,1707790851
77,greenville,35.6127,-77.3663,15.09,99,100,1.54,US,1707790593
78,san antonio de pale,-1.4014,5.6325,28.33,81,49,2.46,GQ,1707790851
79,iqaluit,63.7506,-68.5145,-26.15,70,75,1.54,CA,1707790851
80,khanty-mansiysk,61.0042,69.0019,-28.83,69,0,0.0,RU,1707790851
81,tiksi,71.6872,128.8694,-32.68,100,100,1.28,RU,1707790851
82,callao,-12.0667,-77.15,26.51,65,0,8.23,PE,1707790851
83,iskateley,67.6803,53.1512,-32.77,100,21,2.24,RU,1707790851
84,ryotsu-minato,38.0833,138.4333,10.14,72,45,11.81,JP,1707790851
85,mogocha,53.7333,119.7667,-12.99,62,4,3.26,RU,1707790851
86,senillosa,-39.0,-68.4167,18.88,22,0,4.16,AR,1707790851
87,broken hill,-31.95,141.4333,33.86,28,0,7.52,AU,1707790851
88,mili,6.0815,171.735,27.69,74,100,8.52,MH,1707790851
89,saundatti,15.7833,75.1167,21.18,58,3,1.97,IN,1707790851
90,mossel bay,-34.1831,22.146,20.06,79,31,3.51,ZA,1707790852
91,tembisa,-25.9964,28.2268,17.71,96,0,1.54,ZA,1707790852
92,colonia,50.9333,6.95,4.98,90,0,1.54,DE,1707790774
93,ojinaga,29.5667,-104.4167,10.87,34,0,1.54,MX,1707790852
94,pacasmayo,-7.4006,-79.5714,25.51,76,99,4.69,PE,1707790852
95,ribeira grande,38.5167,-28.7,17.65,89,51,11.18,PT,1707790852
96,laguna,38.421,-121.4238,13.99,65,0,0.0,US,1707790852
97,ilulissat,69.2167,-51.1,-21.99,49,20,1.03,GL,1707790852
98,mao,39.8885,4.2658,11.31,87,0,6.17,ES,1707790852
99,gadzhiyevo,69.2551,33.3362,-20.39,100,74,5.11,RU,1707790852
100,santanyi,39.3546,3.1291,13.79,78,3,3.72,ES,1707790852
101,coahuayana de hidalgo,18.7,-103.6583,21.45,87,99,0.42,MX,1707790852
102,biltine,14.5333,20.9167,21.73,11,2,3.67,TD,1707790852
103,porto novo,6.4965,2.6036,26.4,88,0,2.31,BJ,1707790853
104,richmond hill,43.8711,-79.4372,1.27,82,50,1.33,CA,1707790853
105,akrehamn,59.2667,5.1833,3.56,80,100,8.23,NO,1707790853
106,tura,25.5198,90.2201,18.92,28,49,0.7,IN,1707790853
107,sayula de aleman,17.8667,-94.95,20.59,78,100,2.8,MX,1707790853
108,bamboo flat,11.7,92.7167,29.05,74,20,3.6,IN,1707790853
109,villas,26.5504,-81.8687,23.36,91,0,5.14,US,1707790853
110,selfoss,63.9331,-20.9971,-1.75,85,29,5.0,IS,1707790853
111,opuwo,-18.0607,13.84,21.65,75,100,1.38,NA,1707790853
112,polyarnyy,69.1989,33.4478,-19.68,100,56,5.07,RU,1707790853
113,ruelle-sur-touvre,45.6833,0.2333,5.51,88,75,1.54,FR,1707790853
114,praia,14.9215,-23.5087,21.3,83,20,3.6,CV,1707790854
115,keflavik,64.0049,-22.5624,0.95,86,40,11.83,IS,1707790854
116,alofi,-19.0595,-169.9187,29.94,74,75,5.66,NU,1707790854
117,susuman,62.7833,148.1667,-36.68,97,92,0.45,RU,1707790854
118,copiapo,-27.3667,-70.3333,16.83,73,65,2.0,CL,1707790664
119,chita,52.0333,113.55,-12.06,44,5,1.0,RU,1707790854
120,lompoc,34.6391,-120.4579,14.08,81,0,3.6,US,1707790854
121,port alfred,-33.5906,26.891,18.43,96,0,3.44,ZA,1707790854
122,margaret river,-33.95,115.0667,21.27,43,0,4.9,AU,1707790854
123,avarua,-21.2078,-159.775,29.03,65,20,3.6,CK,1707790854
124,hithadhoo,-0.6,73.0833,28.05,78,100,7.45,MV,1707790854
125,padang,-0.9492,100.3543,32.03,66,44,2.86,ID,1707790854
126,sao joao da barra,-21.6403,-41.0511,25.23,89,68,6.78,BR,1707790854
127,brookings,44.3114,-96.7984,0.06,84,0,0.0,US,1707790854
128,san borja,-14.8167,-66.85,23.32,99,100,0.7,BO,1707790854
129,haiku-pauwela,20.9219,-156.3051,26.01,67,20,5.66,US,1707790854
130,pontianak,-0.0333,109.3333,27.99,88,40,3.6,ID,1707790855
131,malvan,16.0667,73.4667,23.33,44,100,4.49,IN,1707790855
132,san rafael,-34.6177,-68.3301,19.82,37,0,4.17,AR,1707790855
133,eureka,40.8021,-124.1637,11.63,87,100,0.45,US,1707790855
134,oranjemund,-28.55,16.4333,17.56,97,58,3.33,NA,1707790855
135,strathalbyn,-35.2667,138.9,29.25,44,51,6.8,AU,1707790855
136,kerikeri,-35.2268,173.9474,23.3,52,3,4.25,NZ,1707790855
137,cabedelo,-6.9811,-34.8339,26.37,79,54,4.86,BR,1707790855
138,crane,31.3974,-102.3501,10.87,30,0,2.18,US,1707790855
139,isafjordur,66.0755,-23.124,-1.46,90,100,6.99,IS,1707790855
140,gasa,31.5,34.4667,17.24,40,100,5.02,PS,1707790855
141,yuzhno-kurilsk,44.0306,145.8556,-0.35,74,14,3.08,RU,1707790855
142,malpura,26.2833,75.3833,13.31,46,55,2.3,IN,1707790855
143,ilhabela,-23.7781,-45.3581,26.44,79,43,2.43,BR,1707790855
144,huangshan,29.7114,118.3125,14.33,62,99,1.3,CN,1707790856
145,beloyarskiy,63.7119,66.6722,-36.67,100,41,0.45,RU,1707790856
146,muntok,-2.0667,105.1833,26.64,86,98,4.06,ID,1707790856
147,margate,51.3813,1.3862,5.94,85,100,2.24,GB,1707790856
148,az zubayr,30.3945,47.7011,11.92,87,0,2.57,IQ,1707790856
149,cidreira,-30.1811,-50.2056,23.66,90,100,1.91,BR,1707790856
150,bonny,4.4522,7.1681,27.56,90,4,4.42,NG,1707790856
151,bonthe,7.5264,-12.505,25.64,87,0,2.36,SL,1707790856
152,the hammocks,25.6715,-80.4445,25.01,88,100,3.6,US,1707790856
153,wellington,-41.2866,174.7756,24.43,60,24,11.83,NZ,1707790856
154,chibougamau,49.9168,-74.3659,-11.21,85,100,1.03,CA,1707790643
155,nova sintra,14.8667,-24.7167,19.99,81,100,6.17,CV,1707790856
156,playa del carmen,20.6274,-87.0799,26.09,93,40,0.0,MX,1707790856
157,archangelos,36.2149,28.1149,11.84,84,100,1.98,GR,1707790856
158,thompson,55.7435,-97.8558,-8.91,86,100,3.09,CA,1707790642
159,ulladulla,-35.35,150.4667,30.8,46,0,5.74,AU,1707790856
160,adigrat,14.277,39.462,11.91,29,5,1.12,ET,1707790857
161,acarau,-2.8856,-40.12,28.13,81,100,8.37,BR,1707790758
162,lihue,21.9789,-159.3672,25.77,66,0,5.14,US,1707790857
163,mersing,2.4312,103.8405,26.95,83,40,5.66,MY,1707790857
164,lycksele,64.5954,18.6735,-29.07,76,98,0.0,SE,1707790857
165,napili-honokowai,20.9708,-156.6705,26.64,70,0,3.3,US,1707790857
166,victorica,-36.2151,-65.4359,17.93,39,0,3.74,AR,1707790857
167,kodiak,57.79,-152.4072,5.73,75,100,7.72,US,1707790857
168,whitehorse,60.7161,-135.0538,-3.57,68,100,3.6,CA,1707790753
169,new norfolk,-42.7826,147.0587,26.07,20,12,5.15,AU,1707790857
170,yoro,15.1333,-87.1333,21.97,90,8,1.21,HN,1707790857
171,east london,-33.0153,27.9116,21.34,86,0,6.38,ZA,1707790857
172,monteagudo,-19.8167,-63.9833,19.69,99,100,0.17,BO,1707790857
173,punta arenas,-53.15,-70.9167,11.06,62,100,10.8,CL,1707790857
174,bouguenais,47.1776,-1.6214,9.37,100,100,2.06,FR,1707790858
175,belaya kholunitsa,58.84,50.8528,-17.65,100,94,1.81,RU,1707790858
176,codrington,-38.2667,141.9667,26.96,40,9,6.69,AU,1707790858
177,kone,-21.0595,164.8658,31.39,55,6,3.45,NC,1707790858
178,harstad,68.799,16.5293,-3.25,58,100,12.96,NO,1707790858
179,leua,48.2156,18.6071,8.05,87,100,3.86,SK,1707790858
180,bodo,67.28,14.405,-1.98,50,0,12.35,NO,1707790858
181,utrik,11.2278,169.8474,26.05,73,100,10.17,MH,1707790858
182,nalut,30.3333,10.85,16.71,47,86,6.62,LY,1707790858
183,hadibu,12.65,54.0333,25.49,72,22,4.85,YE,1707790858
184,linxia chengguanzhen,35.6003,103.2064,4.42,26,14,0.29,CN,1707790858
185,flying fish cove,-10.4217,105.6791,28.82,78,100,2.06,CX,1707790858
186,stutterheim,-32.5708,27.424,19.53,59,0,2.61,ZA,1707790858
187,dudinka,69.4058,86.1778,-37.4,99,48,1.79,RU,1707790858
188,ceeldheer,3.8488,47.1806,26.37,78,85,6.66,SO,1707790859
189,paragould,36.0584,-90.4973,3.96,90,99,4.02,US,1707790655
190,dhidhdhoo,6.8833,73.1,27.5,69,66,3.16,MV,1707790786
191,ujae,8.9322,165.7642,27.35,75,60,7.94,MH,1707790859
192,dryden,49.7833,-92.7503,-7.84,73,100,2.06,CA,1707790859
193,teknaf,20.8624,92.3058,21.15,44,73,1.77,BD,1707790859
194,cockburn town,21.4612,-71.1419,25.23,75,0,9.44,TC,1707790644
195,akureyri,65.6835,-18.0878,-0.04,93,100,6.17,IS,1707790859
196,fort bragg,35.139,-79.006,15.11,93,100,3.6,US,1707790859
197,turgen,43.4006,77.5933,-8.93,96,100,0.75,KZ,1707790859
198,coquimbo,-29.9533,-71.3436,17.85,88,100,2.57,CL,1707790790
199,tralee,52.2704,-9.7026,4.17,92,86,2.26,IE,1707790859
200,mapimi,25.8167,-103.85,9.7,20,0,2.69,MX,1707790859
201,praia da vitoria,38.7333,-27.0667,16.14,77,20,12.53,PT,1707790859
202,gubkinskiy,64.434,76.5026,-34.57,90,6,3.96,RU,1707790588
203,edinburgh of the seven seas,-37.0676,-12.3116,17.27,76,98,6.64,SH,1707790859
204,jamestown,42.097,-79.2353,-0.82,85,0,4.12,US,1707790749
205,mata-utu,-13.2816,-176.1745,28.82,80,97,7.8,WF,1707790860
206,villa gesell,-37.2639,-56.973,17.81,55,1,11.0,AR,1707790860
207,antofagasta,-23.65,-70.4,21.6,85,100,4.04,CL,1707790669
208,kanniyakumari,8.0833,77.5667,25.91,71,90,7.27,IN,1707790860
209,bytow,54.1706,17.4919,1.78,96,100,5.47,PL,1707790860
210,holualoa,19.6228,-155.9522,24.91,59,20,5.14,US,1707790648
211,egilsstadir,65.2653,-14.3948,0.95,93,100,4.12,IS,1707790860
212,sechura,-5.5569,-80.8222,27.55,64,95,6.2,PE,1707790860
213,elva,58.2225,26.4211,-3.77,91,100,7.72,EE,1707790860
214,saudarkrokur,65.7461,-19.6394,0.07,93,100,8.85,IS,1707790860
215,happy valley-goose bay,53.3168,-60.3315,-5.83,86,100,2.06,CA,1707790860
216,hohhot,40.8106,111.6522,2.16,48,0,1.0,CN,1707790860
217,hailar,49.2,119.7,-9.01,95,88,5.45,CN,1707790860
218,baardheere,2.3446,42.2764,25.89,70,11,3.41,SO,1707790860
219,mount pearl,47.5166,-52.7813,0.47,93,75,5.66,CA,1707790828
220,anadyr,64.75,177.4833,-29.72,74,0,3.58,RU,1707790861
221,cascais,38.6979,-9.4215,18.06,98,100,9.83,PT,1707790861
222,tamanrasset,22.785,5.5228,13.95,24,0,2.06,DZ,1707790861
223,newman,37.3138,-121.0208,14.13,72,52,0.45,US,1707790861
224,lianran,24.9227,102.485,11.3,59,0,3.12,CN,1707790861
225,kapuskasing,49.4169,-82.4331,-9.95,85,75,2.57,CA,1707790861
226,capitan bado,-23.2667,-55.5333,25.67,66,60,3.45,PY,1707790861
227,sinop,41.7711,34.8709,9.87,58,100,4.45,TR,1707790861
228,belyy yar,53.6039,91.3903,-13.06,52,0,6.0,RU,1707790861
229,tabou,4.423,-7.3528,25.99,92,3,1.48,CI,1707790861
230,oodweyne,9.4092,45.064,19.83,61,39,3.25,SO,1707790861
231,nagqu,31.5,92.0,-10.46,38,100,2.76,CN,1707790861
232,kribi,2.95,9.9167,27.26,89,6,2.78,CM,1707790861
233,kavali,14.9167,79.9833,23.31,75,69,0.13,IN,1707790862
234,saurimo,-9.6608,20.3916,18.07,97,28,1.25,AO,1707790862
235,balabac,7.9868,117.0645,27.94,76,61,8.99,PH,1707790862
236,ugoofaaru,5.6667,73.0,27.85,79,58,7.46,MV,1707790862
237,khovd,48.0056,91.6419,-14.84,50,0,2.8,MN,1707790862
238,kuhdasht,33.535,47.6061,8.29,47,12,0.95,IR,1707790862
239,merizo village,13.2658,144.6691,29.31,75,93,10.09,GU,1707790862
240,petropavlovsk-kamchatsky,53.0452,158.6483,-11.67,72,0,3.13,RU,1707790862
241,hammerfest,70.6634,23.6821,-4.75,80,96,6.69,NO,1707790856
242,nema,57.5067,50.5011,-10.91,97,100,1.62,RU,1707790862
243,qaqortoq,60.7167,-46.0333,-3.0,95,100,3.75,GL,1707790862
244,la cruz,23.9167,-106.9,17.03,64,0,2.23,MX,1707790863
245,sabang,5.8933,95.3214,27.69,79,5,11.71,ID,1707790863
246,fort mcmurray,56.7268,-111.381,0.77,59,100,5.66,CA,1707790619
247,lebu,-37.6167,-73.65,13.61,79,0,8.43,CL,1707790863
248,mbinga,-10.9333,35.0167,17.26,97,100,0.54,TZ,1707790863
249,aioun,16.6614,-9.6149,23.94,8,0,4.07,MR,1707790863
250,tomatlan,19.9333,-105.25,20.28,81,100,0.77,MX,1707790863
251,ashburton,-37.8626,145.0794,37.02,37,0,4.47,AU,1707790863
252,nemuro,43.3236,145.575,2.42,75,8,7.78,JP,1707790863
253,saint-pierre,-21.3393,55.4781,24.82,88,75,2.06,RE,1707790863
254,castillos,-34.1667,-53.8333,20.05,91,100,7.89,UY,1707790863
255,riberalta,-10.9833,-66.1,23.53,99,100,1.07,BO,1707790863
256,arinos,-15.9169,-46.1056,21.03,83,5,1.71,BR,1707790863
257,puerto armuelles,8.2833,-82.8667,28.94,57,77,0.45,PA,1707790864
258,kuqa,41.7278,82.9364,1.06,51,100,4.16,CN,1707790864
259,bima,-8.4667,118.7167,28.38,80,100,1.6,ID,1707790864
260,st. john's,47.5649,-52.7093,0.93,93,75,5.66,CA,1707790715
261,sisimiut,66.9395,-53.6735,-24.67,87,33,2.83,GL,1707790864
262,walvis bay,-22.9575,14.5053,17.53,94,79,0.0,NA,1707790864
263,takoradi,4.8845,-1.7554,27.57,88,2,2.99,GH,1707790864
264,tofol,5.3248,163.0078,27.88,89,100,7.72,FM,1707790864
265,udachny,66.4167,112.4,-36.42,66,100,2.92,RU,1707790864
266,lazaro cardenas,17.9583,-102.2,23.61,75,48,0.51,MX,1707790864
267,puerto san jose,13.9256,-90.8244,25.77,73,1,0.93,GT,1707790864
268,labytnangi,66.6572,66.4183,-33.29,92,17,1.61,RU,1707790864
269,gobo,33.8833,135.15,15.57,61,23,4.96,JP,1707790864
270,tromso,69.6496,18.957,-4.99,46,100,4.12,NO,1707790864
271,maceio,-9.6658,-35.7353,25.69,100,40,2.06,BR,1707790606
272,sitka,57.0531,-135.33,4.94,75,0,2.06,US,1707790865
273,college,64.8569,-147.8028,-4.96,86,75,0.0,US,1707790865
274,aasiaat,68.7098,-52.8699,-29.56,96,45,2.38,GL,1707790865
275,shingu,33.7333,135.9833,13.22,64,96,4.25,JP,1707790865
276,corner brook,48.9667,-57.9484,-0.91,98,100,1.54,CA,1707790865
277,nar'yan-mar,67.6713,53.087,-32.72,100,19,2.24,RU,1707790865
278,bredasdorp,-34.5322,20.0403,18.3,95,73,2.86,ZA,1707790865
279,paita,-5.0892,-81.1144,24.95,86,84,5.44,PE,1707790865
280,sherbakul',54.6316,72.3963,-20.91,98,80,3.2,RU,1707790865
281,kangasniemi,61.9936,26.6479,-16.99,96,50,3.57,FI,1707790865
282,south grafton,-29.7,152.95,29.15,42,39,3.44,AU,1707790865
283,bardai,11.65,7.2333,21.9,11,0,3.87,NG,1707790866
284,changping,40.2186,116.2197,5.8,39,0,1.7,CN,1707790781
285,dauphin,51.1494,-100.0502,-3.92,86,100,2.57,CA,1707790866
286,kletnya,53.3897,33.2171,1.13,100,100,2.45,RU,1707790866
287,hasaki,35.7333,140.8333,13.22,48,0,9.59,JP,1707790866
288,zhalantun,48.0,122.7167,-1.55,71,10,8.47,CN,1707790866
289,gunnedah,-30.9833,150.25,30.48,39,8,3.09,AU,1707790866
290,falkenberg,56.9055,12.4912,1.25,96,100,4.77,SE,1707790866
291,constantia,44.1833,28.65,5.38,86,100,3.68,RO,1707790866
292,mount gambier,-37.8333,140.7667,25.81,37,29,4.83,AU,1707790866
293,drogheda,53.7189,-6.3478,7.26,92,40,5.59,IE,1707790866
294,lerwick,60.1545,-1.1494,5.0,84,100,6.34,GB,1707790866
295,jucas,-6.5253,-39.5275,27.16,60,97,2.65,BR,1707790866
296,mil'kovo,55.6078,37.7956,-2.54,96,100,3.16,RU,1707790866
297,afaahiti,-17.75,-149.2833,26.93,90,100,13.28,PF,1707790866
298,vilyuchinsk,52.9306,158.4028,-10.85,69,4,2.2,RU,1707790867
299,tanjungtiram,4.0613,98.3699,27.64,72,8,2.41,ID,1707790867
300,novyy urengoy,66.0833,76.6333,-36.32,97,6,2.55,RU,1707790867
301,rakvere,59.3464,26.3558,-6.05,86,99,6.23,EE,1707790867
302,chulakkurgan,43.765,69.1814,-1.97,90,16,1.63,KZ,1707790867
303,dolores,-36.3132,-57.6792,13.8,65,2,5.49,AR,1707790867
304,copala,16.65,-98.9833,23.23,82,0,0.56,MX,1707790867
305,bryne,58.7354,5.6477,3.32,83,75,8.23,NO,1707790867
306,ellsworth,44.5434,-68.4195,2.14,83,100,0.0,US,1707790867
307,general acha,-37.377,-64.6043,16.4,34,0,4.37,AR,1707790867
308,kandukur,15.2167,79.9167,22.96,77,51,0.82,IN,1707790867
309,ta`u,-14.2336,-169.5144,28.7,79,85,7.4,AS,1707790867
310,ndele,8.4109,20.6473,24.87,20,22,1.59,CF,1707790867
311,ropar,30.9664,76.5331,13.17,58,99,1.18,IN,1707790868
312,ust-nera,64.5667,143.2,-34.94,95,96,0.91,RU,1707790868
313,smithers,54.7804,-127.1743,-4.82,93,20,2.06,CA,1707790868
314,chepo,9.1667,-79.1,27.21,91,100,2.29,PA,1707790868
315,gemena,3.25,19.7667,24.87,48,18,0.15,CD,1707790868
316,dakhla,23.6848,-15.958,19.39,81,86,4.41,EH,1707790868
317,arraial do cabo,-22.9661,-42.0278,23.69,90,91,2.42,BR,1707790868
318,hrubieszow,50.805,23.8925,5.7,90,97,2.75,PL,1707790868
319,wynyard,-41.0,145.7167,21.04,60,55,2.84,AU,1707790868
320,hamilton,39.1834,-84.5333,7.22,63,0,4.12,US,1707790796
321,saint john's,47.5649,-52.7093,0.93,93,75,5.66,CA,1707790844
322,porto murtinho,-21.6989,-57.8825,26.73,76,57,4.08,BR,1707790868
323,coari,-4.085,-63.1414,24.1,96,100,1.55,BR,1707790868
324,kattivakkam,13.2167,80.3167,25.06,66,45,2.45,IN,1707790868
325,black point,-34.6187,137.8972,25.58,48,7,7.52,AU,1707790869
326,vikulovo,56.8167,70.6107,-18.57,98,100,3.15,RU,1707790869
327,humberto de campos,-2.5983,-43.4611,24.93,91,97,2.04,BR,1707790757
328,rundu,-17.9333,19.7667,20.75,69,54,0.91,NA,1707790869
329,sidareja,-7.4846,108.7923,29.45,75,16,0.2,ID,1707790869
330,usinsk,65.9939,57.5281,-29.4,98,8,1.79,RU,1707790869
331,kosh-agach,50.0,88.6667,-29.27,82,29,0.45,RU,1707790869
332,chonchi,-42.6128,-73.8092,11.84,76,60,1.23,CL,1707790869
333,port lincoln,-34.7333,135.8667,21.28,65,5,8.3,AU,1707790772
334,ziro,27.6333,93.8333,4.41,65,100,0.88,IN,1707790869
335,ad dabbah,18.05,30.95,19.01,15,0,3.44,SD,1707790869
336,barah,13.7,30.3667,20.24,14,12,4.22,SD,1707790869
337,plesetsk,62.708,40.2916,-23.53,100,86,2.0,RU,1707790869
338,carnarvon,-24.8667,113.6333,31.54,48,0,5.59,AU,1707790869
339,jiazi,22.8779,116.067,18.33,63,74,3.33,CN,1707790870
340,puerto deseado,-47.7503,-65.8938,11.65,59,25,4.48,AR,1707790870
341,bikenibeu village,1.3673,173.1241,30.98,79,75,2.57,KI,1707790870
342,covington,39.0837,-84.5086,7.49,63,0,4.12,US,1707790870
343,vernon,50.2581,-119.2691,1.24,91,22,1.03,CA,1707790694
344,tual,-5.6667,132.75,28.32,80,100,5.36,ID,1707790870
345,karlshamn,56.1706,14.8619,0.51,97,100,3.84,SE,1707790870
346,ko pha ngan,9.7578,100.0291,26.38,67,3,4.94,TH,1707790870
347,talcahuano,-36.7167,-73.1167,15.82,72,0,3.09,CL,1707790870
348,geraldton,-28.7667,114.6,30.23,32,0,6.69,AU,1707790870
349,muisne,0.6,-80.0333,25.96,91,100,2.6,EC,1707790870
350,lensk,60.7253,114.9278,-26.87,90,100,1.8,RU,1707790870
351,kayangel,8.0823,134.7173,27.19,79,41,10.94,PW,1707790870
352,puerto aysen,-45.4,-72.7,12.01,76,100,1.18,CL,1707790870
353,la passe,45.5549,-0.8967,6.1,92,100,3.31,FR,1707790870
354,gizo,-8.103,156.8419,28.91,73,13,5.95,SB,1707790870
355,kapa'a,22.0752,-159.319,26.18,65,0,5.14,US,1707790871
356,la sarre,48.8002,-79.1996,-11.12,95,100,2.18,CA,1707790826
357,kottapalli,18.4833,79.1,18.86,79,46,3.95,IN,1707790871
358,malango,-2.9627,119.9001,23.58,95,100,0.82,ID,1707790871
359,verkhniy rohachyk,47.2505,34.338,8.13,79,100,3.85,UA,1707790871
360,freeport,40.6576,-73.5832,6.25,70,75,3.6,US,1707790871
361,caleta olivia,-46.4393,-67.5281,14.92,48,60,3.47,AR,1707790871
362,hirara,24.8,125.2833,22.15,60,75,6.69,JP,1707790871
363,lukolela,-1.0605,17.1821,23.05,92,59,2.07,CD,1707790871
364,pudozh,61.8099,36.5345,-26.14,99,22,1.79,RU,1707790871
365,mayya,61.7333,130.2811,-33.38,95,95,3.25,RU,1707790871
366,erandol,20.9167,75.3333,20.61,34,100,2.8,IN,1707790872
367,buchanan,5.8808,-10.0467,27.1,87,14,2.89,LR,1707790872
368,catabola,-12.15,17.2833,18.59,87,100,1.36,AO,1707790872
369,dizangue,3.7667,9.9833,27.64,94,22,0.67,CM,1707790872
370,fada,9.5667,8.3,22.83,15,0,3.14,NG,1707790872
371,kingston,17.997,-76.7936,27.53,81,20,7.72,JM,1707790872
372,makueni boma,-1.8041,37.6203,18.52,80,100,0.47,KE,1707790872
373,pisco,-13.7,-76.2167,24.03,78,0,7.72,PE,1707790872
374,kirakira,-10.4544,161.9205,30.28,63,26,5.16,SB,1707790872
375,garoowe,8.4054,48.4845,20.84,80,29,4.5,SO,1707790872
376,aljezur,37.3191,-8.8033,17.29,97,100,2.52,PT,1707790872
377,guayaramerin,-10.8368,-65.3614,23.15,99,98,0.96,BO,1707790872
378,conception bay south,47.4999,-52.9981,0.8,94,100,3.49,CA,1707790872
379,pogar,52.554,33.2591,1.37,100,100,2.31,RU,1707790873
380,juan de ayolas,-27.4,-56.9,26.26,76,69,2.91,PY,1707790873
381,kamiichi,36.7,137.3667,13.83,32,0,5.14,JP,1707790873
382,reggane,26.7158,0.1714,21.31,27,0,3.2,DZ,1707790873
383,cabo san lucas,22.8909,-109.9124,20.28,70,0,3.09,MX,1707790732
384,muravlenko,63.7898,74.523,-36.81,100,47,2.89,RU,1707790873
385,guozhen,34.3659,107.359,11.3,52,0,0.48,CN,1707790873
386,gamba,-2.65,10.0,26.56,88,100,1.99,GA,1707790873
387,suklayin,15.7574,121.5503,26.79,59,39,1.74,PH,1707790873
388,mount isa,-20.7333,139.5,32.87,52,40,3.09,AU,1707790873
389,badger,64.8,-147.5333,-5.01,87,75,0.0,US,1707790873
390,impfondo,1.6381,18.0667,26.75,50,78,0.39,CG,1707790873
391,sulak,43.2734,47.5146,6.9,87,100,4.53,RU,1707790760
392,al bawiti,28.3492,28.8659,15.26,19,61,4.89,EG,1707790873
393,tsiombe,-25.3,45.4833,23.24,93,96,3.94,MG,1707790874
394,adam,22.3756,57.5233,19.37,83,23,0.59,OM,1707790874
395,sur,22.5667,59.5289,21.53,83,97,2.03,OM,1707790874
396,pedra azul,-16.0053,-41.2972,19.33,97,3,1.17,BR,1707790874
397,mutuali,-14.8706,37.0044,20.19,97,100,1.3,MZ,1707790643
398,luanda,-8.8368,13.2343,28.0,83,40,1.54,AO,1707790874
399,cafayate,-26.073,-65.9761,19.98,97,100,3.68,AR,1707790874
400,twon-brass,4.3151,6.2418,27.85,88,0,5.79,NG,1707790874
401,eyl,7.9803,49.8164,24.44,83,17,3.71,SO,1707790874
402,mundo novo,-11.8589,-40.4725,21.58,92,100,3.32,BR,1707790874
403,plottier,-38.9667,-68.2333,18.95,39,0,2.06,AR,1707790874
404,port mathurin,-19.6833,63.4167,27.49,83,13,9.06,MU,1707790874
405,altay,47.8667,88.1167,-20.75,68,3,3.09,CN,1707790874
406,puerto santa,-8.9906,-78.6456,23.95,85,20,3.67,PE,1707790874
407,uturoa,-16.7333,-151.4333,27.07,89,100,11.5,PF,1707790875
408,eenhana,-17.4667,16.3333,20.43,89,100,1.49,NA,1707790875
409,dongsheng,39.8161,109.9776,0.01,37,19,2.84,CN,1707790875
410,launceston,-41.45,147.1667,28.8,42,40,10.8,AU,1707790875
411,ancud,-41.8697,-73.8203,10.79,72,37,1.95,CL,1707790669
412,manay,7.215,126.5397,27.05,78,87,5.9,PH,1707790875
413,lianjiang,21.6467,110.2817,21.69,62,0,6.94,CN,1707790875
414,zagora,30.3484,-5.8365,17.4,30,5,1.11,MA,1707790875
415,pajapan,18.25,-94.7,20.09,85,100,3.84,MX,1707790875
416,gaigeturi,33.4644,126.3183,15.03,51,0,3.09,KR,1707790875
417,zapolyarnyy,69.4154,30.8136,-17.4,99,47,3.5,RU,1707790875
418,neryungri,56.6709,124.6491,-16.9,83,50,3.49,RU,1707790875
419,kenora,49.8167,-94.4337,-7.46,93,100,1.03,CA,1707790875
420,kruisfontein,-34.0033,24.7314,18.3,81,8,4.0,ZA,1707790875
421,charters towers,-20.1,146.2667,31.9,43,3,3.12,AU,1707790876
422,madang,-5.2246,145.7966,30.59,64,77,2.47,PG,1707790876
423,al quwayrah,29.8004,35.3116,11.0,29,97,1.48,JO,1707790876
424,metlili chaamba,32.2667,3.6333,17.52,55,0,6.17,DZ,1707790876
425,kelibia,36.8476,11.0939,13.14,94,40,1.54,TN,1707790876
426,san dionisio ocotepec,16.8,-96.4,14.1,83,14,2.84,MX,1707790876
427,el tigre,8.8875,-64.2454,26.47,57,94,7.16,VE,1707790876
428,san miguel de cauri,-10.1,-76.5833,9.63,93,100,1.74,PE,1707790876
429,ivdel',60.6911,60.4206,-13.23,96,100,0.89,RU,1707790876
430,ardestan,33.3761,52.3694,8.89,28,3,1.61,IR,1707790876
431,zhumysker,49.3333,49.4,1.3,100,100,3.55,KZ,1707790876
432,ruza,55.699,36.1952,-2.76,95,100,2.93,RU,1707790876
433,turabah,21.2141,41.6331,15.15,37,0,7.03,SA,1707790876
434,nakamura,32.9833,132.9333,15.33,55,65,2.87,JP,1707790876
435,garissa,-0.4536,39.6401,25.66,77,4,2.97,KE,1707790877
436,jaru,-10.4389,-62.4664,23.25,99,100,1.94,BR,1707790877
437,bubaque,11.2833,-15.8333,26.58,69,0,5.34,GW,1707790877
438,zarghun shahr,32.8473,68.4457,1.02,43,6,2.76,AF,1707790877
439,uchkeken,43.9378,42.5117,9.17,40,100,2.02,RU,1707790877
440,touros,-5.1989,-35.4608,27.33,80,95,5.82,BR,1707790877
441,mocajuba,-2.5842,-49.5072,24.3,98,100,1.34,BR,1707790877
442,twin falls,42.3505,-114.6445,2.18,69,0,0.0,US,1707790877
443,karratha,-20.7377,116.8463,26.74,83,0,3.75,AU,1707790877
444,pimenta bueno,-11.6725,-61.1936,22.74,98,100,0.4,BR,1707790728
445,motueka,-41.1333,173.0167,22.83,59,30,3.73,NZ,1707790877
446,alice springs,-23.7,133.8833,33.75,33,1,2.57,AU,1707790878
447,san rafael del sur,11.8485,-86.4384,27.54,68,99,1.98,NI,1707790878
448,madalena,41.2162,-8.3345,13.32,97,100,1.49,PT,1707790878
449,saint-philippe,-21.3585,55.7679,24.77,87,78,4.75,RE,1707790878
450,naze,28.3667,129.4833,17.51,58,41,4.67,JP,1707790878
451,mek'ele,13.4967,39.4753,15.23,48,4,0.77,ET,1707790878
452,lodwar,3.1191,35.5973,30.28,35,73,5.45,KE,1707790878
453,morehead city,34.7229,-76.726,16.01,90,100,4.63,US,1707790642
454,kavaratti,10.5669,72.642,27.72,66,23,2.97,IN,1707790878
455,island harbour,50.724,-1.2758,7.74,83,98,0.89,GB,1707790879
456,sheridan,44.8333,-106.9173,3.34,67,100,3.09,US,1707790718
457,banda aceh,5.5577,95.3222,27.17,76,32,6.45,ID,1707790879
458,uyovu,-3.2833,31.5258,18.67,96,100,1.47,TZ,1707790879
459,memari,23.2,88.1167,20.78,37,66,1.43,IN,1707790879
460,vallenar,-28.5708,-70.7581,18.11,62,76,1.68,CL,1707790879
461,walterboro,32.9052,-80.6668,16.11,100,100,3.09,US,1707790880
462,al badari,26.9926,31.4155,12.08,26,3,3.2,EG,1707790880
463,kirensk,57.7853,108.1119,-14.11,89,100,4.75,RU,1707790598
464,cruzeiro do sul,-29.5128,-51.9853,26.16,88,100,1.24,BR,1707790880
465,shuangcheng,45.35,126.2833,2.82,88,0,9.0,CN,1707790880
466,quellon,-43.1167,-73.6167,9.92,80,68,3.41,CL,1707790644
467,san fernando,15.0286,120.6898,27.85,48,4,4.93,PH,1707790880
468,quechultenango,17.4167,-99.2167,20.03,82,0,2.4,MX,1707790881
469,n'dalatando,-9.2978,14.9116,20.18,100,100,0.47,AO,1707790881
470,envira,-7.3,-70.2167,22.5,99,80,0.53,BR,1707790881
471,panaba,21.2833,-88.2667,22.79,93,19,4.86,MX,1707790881
472,sokoni,-6.4333,39.55,27.01,83,100,3.38,TZ,1707790881
473,bereket,39.2446,55.5154,11.24,43,13,3.5,TM,1707790882
474,gurupi,-11.7292,-49.0686,23.03,91,96,2.81,BR,1707790882
475,fortuna,40.5982,-124.1573,11.48,91,100,0.0,US,1707790882
476,suva,-18.1416,178.4415,29.71,79,75,2.57,FJ,1707790882
477,katsuura,35.1333,140.3,13.53,62,3,11.32,JP,1707790882
478,country club estates,31.2127,-81.4643,20.03,96,100,5.14,US,1707790883
479,nadi,-17.8,177.4167,31.0,79,75,5.14,FJ,1707790724
480,brandon,27.9378,-82.2859,24.18,94,100,8.75,US,1707790883
481,ketchikan,55.3422,-131.6461,5.99,81,0,2.06,US,1707790883
482,diamantino,-14.4086,-56.4461,21.68,98,77,2.06,BR,1707790883
483,kutoarjo,-7.7169,109.9128,29.55,70,9,1.33,ID,1707790884
484,humaita,-7.5061,-63.0208,24.0,98,100,1.21,BR,1707790884
485,vilyuysk,63.7553,121.6247,-27.83,94,100,3.01,RU,1707790884
486,talavera,15.6167,120.9333,27.61,42,9,2.86,PH,1707790884
487,fayroz koh,34.5195,65.2509,-5.83,56,0,3.52,AF,1707790885
488,labrador city,52.9463,-66.9114,-12.05,84,100,2.06,CA,1707790885
489,cide,41.8921,33.0044,13.59,61,100,4.61,TR,1707790885
490,kani keli,-12.9536,45.1033,27.59,77,96,5.07,YT,1707790885
491,jackson,42.4165,-122.8345,10.47,69,100,0.74,US,1707790861
492,illizi,26.4833,8.4667,14.89,33,0,2.76,DZ,1707790885
493,kawm umbu,24.4767,32.9463,16.91,36,0,0.7,EG,1707790886
494,kargasok,59.0556,80.8572,-22.27,97,99,3.67,RU,1707790886
495,vallo della lucania,40.2297,15.2658,4.75,93,76,1.06,IT,1707790886
496,cooma,-36.2333,149.1333,28.8,27,0,5.51,AU,1707790886
497,nangomba,-10.9,38.5,22.4,94,100,1.04,TZ,1707790887
498,jacksonville,30.3322,-81.6556,21.68,94,75,5.14,US,1707790775
499,mandalgovi,45.7625,106.2708,-10.02,75,100,5.89,MN,1707790887
500,ghat,24.9647,10.1728,15.39,37,0,1.25,LY,1707790887
501,ottawa,45.4112,-75.6981,-0.57,67,20,1.54,CA,1707790764
502,horta,38.5333,-28.6333,17.23,89,51,11.18,PT,1707790887
503,jalai nur,49.45,117.7,-11.87,86,10,8.28,CN,1707790887
504,urengoy,65.9667,78.3667,-35.55,95,12,3.26,RU,1707790887
505,alesund,62.4723,6.1549,4.63,68,75,4.12,NO,1707790888
506,laguilayan,6.6525,124.5211,28.39,63,100,2.09,PH,1707790888
507,mendefera,14.8872,38.8153,14.36,36,20,0.55,ER,1707790888
508,qui nhon,13.7667,109.2333,22.35,81,76,3.84,VN,1707790888
509,grosse ile,42.1292,-83.1444,1.1,77,0,2.57,US,1707790888
510,queenstown,-31.8976,26.8753,16.25,78,0,0.55,ZA,1707790888
511,passy,45.9203,6.6877,-0.01,90,85,1.78,FR,1707790888
512,san patricio,28.017,-97.5169,15.92,51,0,2.85,US,1707790888
513,kalmunai,7.4167,81.8167,25.88,85,60,3.72,LK,1707790889
514,kikwit,-5.041,18.8162,23.96,79,46,1.23,CD,1707790889
515,guixi,28.2886,117.2133,14.93,61,86,2.24,CN,1707790889
516,baganga,7.5739,126.56,26.38,80,100,4.25,PH,1707790889
517,northam,51.0333,-4.2167,5.92,85,97,4.75,GB,1707790889
518,motygino,58.1831,94.7592,-18.71,93,100,4.19,RU,1707790889
519,weno,7.4515,151.8468,29.97,66,40,6.17,FM,1707790890
520,al qadarif,14.0349,35.3834,23.22,24,100,3.77,SD,1707790890
521,malangali,-8.5667,34.85,17.26,96,100,1.24,TZ,1707790890
522,bayganin,48.6947,55.8742,-0.81,95,100,5.82,KZ,1707790890
523,revda,56.801,59.9303,-9.91,88,100,2.6,RU,1707790890
524,quepos,9.4236,-84.1652,26.68,79,63,0.73,CR,1707790890
525,al ghayzah,16.2079,52.176,22.18,86,32,2.6,YE,1707790890
526,bahia de caraquez,-0.6,-80.4167,27.1,89,100,2.99,EC,1707790891
527,la'ie,21.6477,-157.9253,27.98,59,9,1.79,US,1707790891
528,papao,-17.75,-149.55,27.82,87,100,14.78,PF,1707790891
529,lampasas,31.2168,-98.2336,9.65,68,0,2.06,US,1707790805
530,rosalie,15.3667,-61.2667,24.85,82,51,5.68,DM,1707790891
531,isoka,-10.1606,32.6335,17.39,99,100,0.52,ZM,1707790891
532,sault ste. marie,46.5168,-84.3333,-1.69,100,40,4.12,CA,1707790714
533,ust'-uda,54.1742,103.0304,-12.53,85,100,4.63,RU,1707790891
534,boguchany,58.3814,97.4531,-17.57,88,100,4.22,RU,1707790891
535,labuan,5.2767,115.2417,29.2,79,20,2.57,MY,1707790892
536,novhorod-sivers'kyy,52.0058,33.2615,2.02,100,100,1.98,UA,1707790892
537,tangalle,6.024,80.7911,24.6,79,77,4.36,LK,1707790892
538,edson,53.5835,-116.4356,0.08,37,40,5.14,CA,1707790892
539,mahibadhoo,3.7833,72.9667,27.94,78,100,6.7,MV,1707790892
540,joshimath,30.5667,79.5667,4.26,65,100,3.84,IN,1707790892
541,pastor ortiz,20.3039,-101.5936,16.94,29,100,1.18,MX,1707790892
542,changji,44.0167,87.3167,-4.56,80,75,3.0,CN,1707790892
543,sarangani,5.4033,125.4636,27.69,70,36,3.14,PH,1707790892
544,nizhneudinsk,54.9076,99.0276,-15.75,71,100,4.27,RU,1707790892
545,cannonvale,-20.2833,148.7,29.66,67,12,5.58,AU,1707790892
546,visby,57.6409,18.296,1.13,100,100,1.54,SE,1707790893
547,pandan,14.0453,124.1694,25.13,86,100,8.86,PH,1707790893
548,ladozhskaya,45.3081,39.935,10.36,55,100,1.89,RU,1707790893
549,olinda,-8.0089,-34.8553,27.85,83,40,6.17,BR,1707790893
550,itoman,26.1247,127.6694,23.43,40,20,6.17,JP,1707790893
551,genteng,-8.3667,114.15,29.86,62,75,1.0,ID,1707790893
552,vila velha,-20.3297,-40.2925,25.97,93,0,2.06,BR,1707790893
553,san julian,21.0167,-102.1667,15.86,30,100,7.55,MX,1707790893
554,ubari,26.5921,12.7805,14.7,44,0,3.65,LY,1707790893
555,pitimbu,-7.4706,-34.8086,26.33,81,56,4.65,BR,1707790893
556,guarapari,-20.6667,-40.4975,25.5,93,36,4.46,BR,1707790817
557,chengde,40.9725,117.9361,4.58,43,0,1.28,CN,1707790638
558,tamandare,-8.7597,-35.1047,24.96,91,91,1.15,BR,1707790893
